[
  {
    "name": "Marlborough",
    "lon": 173.94513228494836,
    "lat": -41.438794755757414
  },
  {
    "name": "Bay of Plenty",
    "lon": 176.1738447074005,
    "lat": -37.68865785171818
  },
  {
    "name": "Otago",
    "lon": 170.61822854092958,
    "lat": -45.8811598678206
  },
  {
    "name": "Southland",
    "lon": 168.7656030049641,
    "lat": -46.31007989969908
  },
  {
    "name": "Wellington",
    "lon": 174.77897513987728,
    "lat": -41.292925903331486
  },
  {
    "name": "Nelson",
    "lon": 173.24331384332675,
    "lat": -41.29916861721784
  },
  {
    "name": "Waikato",
    "lon": 175.25176692618848,
    "lat": -37.785425475229594
  },
  {
    "name": "West Coast",
    "lon": 171.36483629498304,
    "lat": -42.08605366228864
  },
  {
    "name": "Auckland",
    "lon": 174.76776366498572,
    "lat": -36.86678725651233
  },
  {
    "name": "Northland",
    "lon": 173.9093813326705,
    "lat": -35.419226303458636
  },
  {
    "name": "Manawat\u016b-Whanganui",
    "lon": 175.27444399486492,
    "lat": -40.16523057019818
  },
  {
    "name": "Gisborne",
    "lon": 177.96208452445254,
    "lat": -38.6439482471211
  },
  {
    "name": "Canterbury",
    "lon": 172.66409118462593,
    "lat": -43.526413933311346
  },
  {
    "name": "Taranaki",
    "lon": 174.28657527398096,
    "lat": -39.33696141737393
  },
  {
    "name": "Hawke's Bay",
    "lon": 176.90650943541718,
    "lat": -39.4940611986856
  }
]
